{"type":"FeatureCollection","features":[{"type":"Feature","geometry":{"type":"Point","coordinates":[-22.43,63.85]},"properties":{"Race name":"Ecotrail Reykjavik 82 Km","Date":"2018-07-06T17:01:57Z","Distance (km)":101.38,"Average speed (km/h)":7.49,"Max speed (km/h)":35.28,"Elevation high (m)":318,"Elevation low (m)":0,"Total elevation gain (m)":1886,"Coordonnées (lat,lng)":[64.12,-21.93],"marker-symbol":"pitch","marker-size":"medium"}},{"type":"Feature","geometry":{"type":"Point","coordinates":[5.31,49.7]},"properties":{"Race name":"Trail d'Orval Florenville 19K","Date":"2018-06-23T12:05:31Z","Distance (km)":20.15,"Average speed (km/h)":11.19,"Max speed (km/h)":35.28,"Elevation high (m)":400,"Elevation low (m)":290,"Total elevation gain (m)":829,"Coordonnées (lat,lng)":[49.7,5.31],"marker-symbol":"pitch","marker-size":"medium"}},{"type":"Feature","geometry":{"type":"Point","coordinates":[6.04,47.23]},"properties":{"Race name":"Trail des Forts","Date":"2018-05-13T05:29:56Z","Distance (km)":47.4,"Average speed (km/h)":6.32,"Max speed (km/h)":39.24,"Elevation high (m)":507,"Elevation low (m)":240,"Total elevation gain (m)":2450,"Coordonnées (lat,lng)":[47.23,6.04],"marker-symbol":"pitch","marker-size":"medium"}},{"type":"Feature","geometry":{"type":"Point","coordinates":[55.47,-21.14]},"properties":{"Race name":"Trail de Bourbon - DNF","Date":"2017-10-20T16:59:44Z","Distance (km)":55.52,"Average speed (km/h)":2.89,"Max speed (km/h)":57.6,"Elevation high (m)":2453,"Elevation low (m)":852,"Total elevation gain (m)":4267,"Coordonnées (lat,lng)":[-21.06,55.38],"marker-symbol":"pitch","marker-size":"medium"}},{"type":"Feature","geometry":{"type":"Point","coordinates":[-70.43,47.85]},"properties":{"Race name":"UTHC 65","Date":"2017-09-09T11:00:02Z","Distance (km)":63.26,"Average speed (km/h)":7.35,"Max speed (km/h)":19.44,"Elevation high (m)":792,"Elevation low (m)":203,"Total elevation gain (m)":1970,"Coordonnées (lat,lng)":[47.77,-70.1],"marker-symbol":"pitch","marker-size":"medium"}},{"type":"Feature","geometry":{"type":"Point","coordinates":[18.08,59.37]},"properties":{"Race name":"Ecotrail® Stockholm 45 Km","Date":"2017-06-17T07:59:54Z","Distance (km)":45.27,"Average speed (km/h)":9.3,"Max speed (km/h)":21.24,"Elevation high (m)":80,"Elevation low (m)":-1,"Total elevation gain (m)":1163,"Coordonnées (lat,lng)":[59.33,18.07],"marker-symbol":"pitch","marker-size":"medium"}},{"type":"Feature","geometry":{"type":"Point","coordinates":[-28.61,38.59]},"properties":{"Race name":"Azores Trail Run - Faial Costa a Costa","Date":"2017-05-27T08:59:59Z","Distance (km)":42.53,"Average speed (km/h)":6.66,"Max speed (km/h)":14.4,"Elevation high (m)":1072,"Elevation low (m)":9,"Total elevation gain (m)":2640,"Coordonnées (lat,lng)":[38.57,-28.78],"marker-symbol":"pitch","marker-size":"medium"}},{"type":"Feature","geometry":{"type":"Point","coordinates":[-28.43,38.47]},"properties":{"Race name":"Azores Trail Run - Pico Vertical Kilometer","Date":"2017-05-26T09:37:39Z","Distance (km)":2.13,"Average speed (km/h)":2.63,"Max speed (km/h)":10.08,"Elevation high (m)":1918,"Elevation low (m)":1249,"Total elevation gain (m)":713,"Coordonnées (lat,lng)":[38.47,-28.41],"marker-symbol":"pitch","marker-size":"medium"}},{"type":"Feature","geometry":{"type":"Point","coordinates":[2.3,48.87]},"properties":{"Race name":"Marathon de Paris - malade, DNF.","Date":"2017-04-09T06:24:23Z","Distance (km)":27.31,"Average speed (km/h)":13.39,"Max speed (km/h)":33.48,"Elevation high (m)":70,"Elevation low (m)":24,"Total elevation gain (m)":336,"Coordonnées (lat,lng)":[48.86,2.32],"marker-symbol":"pitch","marker-size":"medium"}},{"type":"Feature","geometry":{"type":"Point","coordinates":[18.42,-33.92]},"properties":{"Race name":"Table Mountain","Date":"2016-12-16T12:34:44Z","Distance (km)":9.82,"Average speed (km/h)":3.07,"Max speed (km/h)":29.88,"Elevation high (m)":1061,"Elevation low (m)":-3,"Total elevation gain (m)":1142,"Coordonnées (lat,lng)":[-33.96,18.4],"marker-symbol":"pitch","marker-size":"medium"}},{"type":"Feature","geometry":{"type":"Point","coordinates":[-7.94,31.31]},"properties":{"Race name":"Morocco Race 65","Date":"2016-11-26T05:42:13Z","Distance (km)":56.94,"Average speed (km/h)":5.95,"Max speed (km/h)":16.56,"Elevation high (m)":1869,"Elevation low (m)":1069,"Total elevation gain (m)":2655,"Coordonnées (lat,lng)":[31.31,-7.94],"marker-symbol":"pitch","marker-size":"medium"}},{"type":"Feature","geometry":{"type":"Point","coordinates":[34.91,38.63]},"properties":{"Race name":"Cappadocia Trail 60K","Date":"2016-10-22T05:00:28Z","Distance (km)":60.32,"Average speed (km/h)":7.46,"Max speed (km/h)":27.36,"Elevation high (m)":1467,"Elevation low (m)":1028,"Total elevation gain (m)":2075,"Coordonnées (lat,lng)":[38.63,34.91],"marker-symbol":"pitch","marker-size":"medium"}},{"type":"Feature","geometry":{"type":"Point","coordinates":[103.79,22.39]},"properties":{"Race name":"VMM 2016","Date":"2016-09-24T00:42:13Z","Distance (km)":42.58,"Average speed (km/h)":7.21,"Max speed (km/h)":16.92,"Elevation high (m)":1789,"Elevation low (m)":924,"Total elevation gain (m)":2129,"Coordonnées (lat,lng)":[22.28,103.97],"marker-symbol":"pitch","marker-size":"medium"}},{"type":"Feature","geometry":{"type":"Point","coordinates":[12.14,46.54]},"properties":{"Race name":"Cortina Trail","Date":"2016-06-25T05:59:55Z","Distance (km)":47.68,"Average speed (km/h)":6.62,"Max speed (km/h)":19.44,"Elevation high (m)":2413,"Elevation low (m)":1199,"Total elevation gain (m)":2778,"Coordonnées (lat,lng)":[46.54,12.14],"marker-symbol":"pitch","marker-size":"medium"}},{"type":"Feature","geometry":{"type":"Point","coordinates":[2.35,48.86]},"properties":{"Race name":"10Km L'Equipe","Date":"2016-05-29T07:05:54Z","Distance (km)":10.16,"Average speed (km/h)":14.8,"Max speed (km/h)":28.44,"Elevation high (m)":64,"Elevation low (m)":37,"Total elevation gain (m)":122,"Coordonnées (lat,lng)":[48.87,2.37],"marker-symbol":"pitch","marker-size":"medium"}},{"type":"Feature","geometry":{"type":"Point","coordinates":[10.6,60.02]},"properties":{"Race name":"Ecotrail of Oslo 30K","Date":"2016-05-21T11:01:37Z","Distance (km)":29.76,"Average speed (km/h)":11.25,"Max speed (km/h)":21.96,"Elevation high (m)":365,"Elevation low (m)":-4,"Total elevation gain (m)":419,"Coordonnées (lat,lng)":[59.91,10.75],"marker-symbol":"pitch","marker-size":"medium"}},{"type":"Feature","geometry":{"type":"Point","coordinates":[-17.84,28.46]},"properties":{"Race name":"Transvulcania - Half Marathon","Date":"2016-05-07T07:30:01Z","Distance (km)":24.05,"Average speed (km/h)":6.85,"Max speed (km/h)":18.0,"Elevation high (m)":1913,"Elevation low (m)":0,"Total elevation gain (m)":2190,"Coordonnées (lat,lng)":[28.61,-17.84],"marker-symbol":"pitch","marker-size":"medium"}},{"type":"Feature","geometry":{"type":"Point","coordinates":[-17.95,28.65]},"properties":{"Race name":"Transvulcania KM Vertical","Date":"2016-05-05T17:49:33Z","Distance (km)":7.21,"Average speed (km/h)":4.6,"Max speed (km/h)":17.28,"Elevation high (m)":1082,"Elevation low (m)":0,"Total elevation gain (m)":1204,"Coordonnées (lat,lng)":[28.69,-17.92],"marker-symbol":"pitch","marker-size":"medium"}},{"type":"Feature","geometry":{"type":"Point","coordinates":[2.23,48.82]},"properties":{"Race name":"Ecotrail de Paris 30Km","Date":"2016-03-19T10:00:38Z","Distance (km)":30.83,"Average speed (km/h)":12.73,"Max speed (km/h)":26.64,"Elevation high (m)":185,"Elevation low (m)":19,"Total elevation gain (m)":519,"Coordonnées (lat,lng)":[48.86,2.29],"marker-symbol":"pitch","marker-size":"medium"}},{"type":"Feature","geometry":{"type":"Point","coordinates":[2.31,48.91]},"properties":{"Race name":"Foulées de Clichy","Date":"2016-03-13T10:17:58Z","Distance (km)":9.98,"Average speed (km/h)":15.54,"Max speed (km/h)":26.28,"Elevation high (m)":49,"Elevation low (m)":29,"Total elevation gain (m)":95,"Coordonnées (lat,lng)":[48.91,2.31],"marker-symbol":"pitch","marker-size":"medium"}},{"type":"Feature","geometry":{"type":"Point","coordinates":[-15.5,27.98]},"properties":{"Race name":"Viva Las Vegas","Date":"2016-03-05T11:56:34Z","Distance (km)":17.83,"Average speed (km/h)":6.53,"Max speed (km/h)":32.76,"Elevation high (m)":1480,"Elevation low (m)":597,"Total elevation gain (m)":1242,"Coordonnées (lat,lng)":[27.98,-15.5],"marker-symbol":"pitch","marker-size":"medium"}},{"type":"Feature","geometry":{"type":"Point","coordinates":[-16.92,32.68]},"properties":{"Race name":"Eco-Trail Funchal-Madeira Island 40Km","Date":"2015-10-31T09:01:10Z","Distance (km)":35.48,"Average speed (km/h)":5.09,"Max speed (km/h)":14.76,"Elevation high (m)":1495,"Elevation low (m)":0,"Total elevation gain (m)":2525,"Coordonnées (lat,lng)":[32.64,-16.96],"marker-symbol":"pitch","marker-size":"medium"}},{"type":"Feature","geometry":{"type":"Point","coordinates":[4.71,45.68]},"properties":{"Race name":"Saintésprint","Date":"2014-12-06T22:01:04Z","Distance (km)":23.41,"Average speed (km/h)":11.22,"Max speed (km/h)":21.6,"Elevation high (m)":369,"Elevation low (m)":162,"Total elevation gain (m)":458,"Coordonnées (lat,lng)":[45.72,4.83],"marker-symbol":"pitch","marker-size":"medium"}},{"type":"Feature","geometry":{"type":"Point","coordinates":[2.29,48.86]},"properties":{"Race name":"20 kilomètres de Paris","Date":"2014-10-12T08:00:08Z","Distance (km)":20.15,"Average speed (km/h)":14.89,"Max speed (km/h)":26.28,"Elevation high (m)":76,"Elevation low (m)":27,"Total elevation gain (m)":138,"Coordonnées (lat,lng)":[48.86,2.29],"marker-symbol":"pitch","marker-size":"medium"}}]}
