{"type":"FeatureCollection","features":[{"type":"Feature","geometry":{"type":"Point","coordinates":[12.14,46.54]},"properties":{"Race name":"Cortina Trail","Date":"2016-06-25T05:59:55Z","Distance (km)":47.6788,"Average speed (km/h)":6.6240000000000006,"Max speed (km/h)":19.44,"Elevation high (m)":2415.0,"Elevation low (m)":1226.0,"Total elevation gain (m)":2477.9,"Coordonnées (lat,lng)":[46.54,12.14]}},{"type":"Feature","geometry":{"type":"Point","coordinates":[2.35,48.86]},"properties":{"Race name":"10Km L'Equipe","Date":"2016-05-29T07:05:54Z","Distance (km)":10.159799999999999,"Average speed (km/h)":14.796000000000001,"Max speed (km/h)":28.44,"Elevation high (m)":67.0,"Elevation low (m)":46.0,"Total elevation gain (m)":51.0,"Coordonnées (lat,lng)":[48.87,2.37]}},{"type":"Feature","geometry":{"type":"Point","coordinates":[10.6,60.02]},"properties":{"Race name":"Ecotrail of Oslo 30K","Date":"2016-05-21T11:01:37Z","Distance (km)":29.7565,"Average speed (km/h)":11.25,"Max speed (km/h)":21.96,"Elevation high (m)":355.0,"Elevation low (m)":4.0,"Total elevation gain (m)":610.1,"Coordonnées (lat,lng)":[59.91,10.75]}},{"type":"Feature","geometry":{"type":"Point","coordinates":[-17.84,28.46]},"properties":{"Race name":"Transvulcania - Half Marathon","Date":"2016-05-07T07:30:01Z","Distance (km)":24.0478,"Average speed (km/h)":6.8472,"Max speed (km/h)":18.0,"Elevation high (m)":1936.0,"Elevation low (m)":11.0,"Total elevation gain (m)":2181.0,"Coordonnées (lat,lng)":[28.61,-17.84]}},{"type":"Feature","geometry":{"type":"Point","coordinates":[-17.95,28.65]},"properties":{"Race name":"Transvulcania KM Vertical","Date":"2016-05-05T17:49:33Z","Distance (km)":7.2127,"Average speed (km/h)":4.5972,"Max speed (km/h)":17.28,"Elevation high (m)":1166.0,"Elevation low (m)":20.0,"Total elevation gain (m)":1171.0,"Coordonnées (lat,lng)":[28.69,-17.92]}},{"type":"Feature","geometry":{"type":"Point","coordinates":[2.23,48.82]},"properties":{"Race name":"Ecotrail de Paris 30Km","Date":"2016-03-19T10:00:38Z","Distance (km)":30.8335,"Average speed (km/h)":12.726,"Max speed (km/h)":26.64,"Elevation high (m)":173.0,"Elevation low (m)":33.0,"Total elevation gain (m)":594.5,"Coordonnées (lat,lng)":[48.86,2.29]}},{"type":"Feature","geometry":{"type":"Point","coordinates":[2.31,48.91]},"properties":{"Race name":"Foulées de Clichy","Date":"2016-03-13T10:17:58Z","Distance (km)":9.9785,"Average speed (km/h)":15.5376,"Max speed (km/h)":26.28,"Elevation high (m)":54.0,"Elevation low (m)":49.0,"Total elevation gain (m)":39.0,"Coordonnées (lat,lng)":[48.91,2.31]}},{"type":"Feature","geometry":{"type":"Point","coordinates":[-15.5,27.98]},"properties":{"Race name":"Viva Las Vegas","Date":"2016-03-05T11:56:34Z","Distance (km)":17.8261,"Average speed (km/h)":6.5304,"Max speed (km/h)":32.76,"Elevation high (m)":1496.0,"Elevation low (m)":604.0,"Total elevation gain (m)":1026.2,"Coordonnées (lat,lng)":[27.98,-15.5]}},{"type":"Feature","geometry":{"type":"Point","coordinates":[-16.92,32.68]},"properties":{"Race name":"Eco-Trail Funchal-Madeira Island 40Km","Date":"2015-10-31T09:01:10Z","Distance (km)":35.4837,"Average speed (km/h)":5.0904,"Max speed (km/h)":14.76,"Elevation high (m)":1494.9,"Elevation low (m)":0.0,"Total elevation gain (m)":2524.5,"Coordonnées (lat,lng)":[32.64,-16.96]}},{"type":"Feature","geometry":{"type":"Point","coordinates":[4.71,45.68]},"properties":{"Race name":"Saintésprint","Date":"2014-12-06T22:01:04Z","Distance (km)":23.4117,"Average speed (km/h)":11.2248,"Max speed (km/h)":21.6,"Elevation high (m)":368.9,"Elevation low (m)":162.2,"Total elevation gain (m)":458.0,"Coordonnées (lat,lng)":[45.72,4.83]}},{"type":"Feature","geometry":{"type":"Point","coordinates":[2.29,48.86]},"properties":{"Race name":"20 kilomètres de Paris","Date":"2014-10-12T08:00:08Z","Distance (km)":20.154400000000003,"Average speed (km/h)":14.889600000000002,"Max speed (km/h)":26.28,"Elevation high (m)":76.0,"Elevation low (m)":26.6,"Total elevation gain (m)":138.1,"Coordonnées (lat,lng)":[48.86,2.29]}}]}
